,id,latitude,longitude,city,street,number,elevation
0,466,50.096969,19.914774,Kraków,Władysława Łokietka,133A,222.22
1,2903,50.09422,19.905241,Kraków,Stelmachów,125A,224.07
2,192,50.065128,19.867504,Kraków,aleja Kasztanowa,9,225.86
3,263,49.999615,19.966073,Kraków-Podgórze,Wyżynna,32,235.34
4,627,49.996571,19.957157,Kraków,Stepowa,8,256.48
5,221,50.085346,20.007551,Kraków,Osiedle Dywizjonu 303,26,222.43
6,6182,50.084966,19.877998,Kraków,osiedle Złota Podkowa,22,230.22
7,2098,50.102596,19.917511,Zielonki,Fiołkowa,12,228.5
8,5626,49.993368,19.946925,Kraków,Myślenicka,112,253.36
9,3282,50.097127,19.992093,Kraków,Budziszyńska,44,239.07
10,215,50.096693,19.993572,Kraków,Korony Polskiej,13,243.15
11,1070,50.002872,19.891985,Kraków,Profesora Geremka,26,245.78
12,234,49.99848,19.902375,Kraków,Mieczykowa,6,243.07
13,182,50.020586,20.02296,Kraków,Komandora Bohdana Wrońskiego,9,199.94
14,206,50.108332,19.924004,Zielonki,Długopolska,15,229.1
15,1029,50.078738,20.029012,Kraków,,1,214.55
16,5625,49.991052,19.913596,Kraków,Kłuszyńska,46,234.64
17,183,50.098304,19.879415,Kraków,Stawowa,202,249.34
18,1068,50.108024,19.896124,Kraków,Azaliowa,2A,227.17
19,255,50.115407,19.966652,Węgrzce,Zapole,2,279.26
20,59,50.099361,20.018317,Kraków,Popielidów,,240.01
21,2513,50.117763,19.92077,Zielonki,Droga Wojewódzka 794,116,230.53
22,5651,50.1167,19.91429,Zielonki,Księdza Jana Michalika,2,245.2
23,251,50.118583,19.926746,Zielonki,Galicyjska,17A,235.49
24,237,50.115496,19.98213,Węgrzce,A5,9,242.44
25,225,50.020756,19.844076,Kraków,Dąbrowa,30A,205.85
26,19,50.069308,20.053492,Kraków,Bulwarowa,30,203.87
27,239,50.120482,19.972246,Węgrzce,A3,1,264.39
28,605,50.055737,19.830334,Kraków,Orla,150,282.04
29,609,50.05426,19.826462,Kraków,,,291.38
30,238,50.110831,20.015155,Batowice,Karola Wojtyły,106,249.81
31,252,50.126232,19.954121,Bibice,Tadeusza Kościuszki,1,257.93
32,203,50.083454,20.057153,Kraków,Melchiora Wańkowicza,84,208.16
33,2865,49.980911,19.881126,Kraków,Leona Petrażyckiego,65f,253.67
34,267,50.126026,19.905455,Pękowice,Pod Fortem,6,254.39
35,233,50.123593,19.994082,Bosutów,Krakowska,20,257.97
36,6070,50.118809,20.009399,Dziekanowice,Dziekanowicka,,270.61
37,258,50.128409,19.973662,Węgrzce,C21,14,297.5
38,444,49.9909,20.03226,Wieliczka,Krzyszkowicka,18A,243.62
39,245,50.131359,19.951436,Bibice,Lipowa,39,266.2
40,363,49.972103,19.898235,Libertów,Jana Pawła II,43,308.82
41,247,50.127424,19.898802,Pękowice,Ojcowska,17,275.66
42,493,50.099709,19.837011,Rząska,Krakowska,122,251.92
43,241,50.133024,19.973249,Bosutów,Jodłowa,8,279.92
44,549,50.123853,19.874604,Modlnica,Polna,42,271.78
45,219,50.107347,20.045773,Kraków,Gustawa Morcinka,15,222.21
46,6147,50.133579,19.905573,Zielonki,Trojanowicka,32,242.98
47,5759,49.961026,19.942816,Wrząsowice,,,306.25
48,6068,50.117668,20.033667,Raciborowice,,,235.45
49,5709,50.118934,19.855883,Modlniczka,świętej Faustyny,10,251.32
50,708,50.108296,19.83855,Modlniczka,Kasztanowa,14,231.14
51,229,50.139077,19.926778,Garlica Murowana,Garlicka,,255.72
52,2467,49.970136,20.012222,Sygneczów,,,347.51
53,423,50.006641,20.069019,Czarnochowice,,,220.04
54,662,50.127182,19.864904,Modlnica,Źródlana,16,277.23
55,347,50.140827,19.97341,Michałowice,Legionowa,26,306.98
56,5638,50.140354,19.911984,Trojanowice,Krakowska,118,277.26
57,329,50.1315,20.014326,Książniczki,,,227.36
58,2306,49.960396,19.899989,Gaj,Parkowa,73,284.71
59,2440,49.98842,20.05878,Wieliczka,Marszałka Józefa Piłsudskiego,20,258.4
60,512,50.140965,19.989164,Młodziejowice,,,245.54
61,1133,50.129762,19.862389,Modlnica,Sportowa,2,275.57
62,145,50.139071,19.887579,Giebułtów,Osiedle Szkolne,8,292.36
63,144,50.139211,19.886935,Giebułtów,Osiedle Szkolne,8,293.67
64,604,50.145735,19.923545,Garlica Duchowna,,,261.82
65,491,50.093582,19.808323,Szczyglice,Sportowa,38,219.85
66,6076,49.985546,20.059961,Wieliczka,Stanisława Moniuszki,1,240.53
67,246,50.148238,19.95973,Michałowice,Ulica Graniczna,111,311.71
68,2849,49.971877,20.040339,Siercza,,,352.48
69,236,50.149958,19.933871,Wola Zachariaszowska,Świętego Floriana,19,306.29
70,137,50.1502,19.9326,Wola Zachariaszowska,,,303.36
71,136,50.1502,19.93232,,Plac Józefa Kusia,,302.5
72,1037,50.048699,20.101569,Kraków,Dymarek,11,194.09
73,135,50.15027,19.93276,Wola Zachariaszowska,,,304.26
74,323,49.950474,19.973186,Ochojno,,,381.18
75,304,49.98436,20.066578,Wieliczka,Słowackiego,26,251.23
76,935,50.143699,19.879804,Giebułtów,Orlich Gniazd,30,316.25
77,230,50.152096,19.919811,Garliczka,,,274.46
78,2274,50.086516,19.791139,Balice,Radziwiłłów,1,242.01
79,240,50.150666,19.89879,Januszowice,Spacerowa,,277.79
80,1033,50.141017,19.863014,Szyce,Plac Wspólnoty,2,316.2
81,519,49.98194,20.070153,Wieliczka,,,269.62
82,327,49.945389,19.973122,Rzeszotary,,,384.07
83,541,50.134081,19.8415,Tomaszowice,Krakowska,85,294.6
84,353,50.137146,20.041231,Raciborowice,,,285.06
85,64,49.971047,19.830422,Skawina,Ogrody,6D,227.34
86,397,50.124599,19.822081,Brzezie,Narodowa,37,230.3
87,354,50.145447,20.027565,Zdzięsławice,,,264.02
88,5649,50.157944,19.979183,Michałowice,pl. Józefa Piłsudskiego,1,260.39
89,811,50.056786,19.772648,Cholerzyn,,,219.47
90,642,50.134399,19.830833,Tomaszowice,Ujazdowska,49,266.37
91,1027,50.157282,19.89491,,Krakowska,19,309.58
92,425,50.015339,20.111307,Węgrzce Wielkie,,518,202.43
93,326,49.938755,19.973866,Rzeszotary,,,350.11
94,301,50.162285,19.946915,Michałowice,Leśna,113,340.11
95,368,49.942879,19.884991,Mogilany,Parkowa,2A,390.58
96,2123,50.116436,19.801319,Zabierzów,Wapienna,,232.93
97,473,49.95096,20.03479,Koźmice Wielkie,,,318.77
98,1092,50.156845,19.878487,Januszowice,Młyńska,,275.82
99,5763,49.934395,19.944468,Świątniki Górne,Bruchnalskiego,35,363.56
100,325,49.93483,19.961107,Świątniki Górne,Franciszka Bielowicza,20,376.38
101,620,49.942242,19.878483,Mogilany,Podedworze,88,385.83
102,335,50.160854,19.99761,Masłomiąca,Długa,41,249.72
103,2707,50.005803,20.113285,Mała Wieś,,,242.42
104,394,50.155872,20.02762,Więcławice Stare,Więcławice,49,286.45
105,482,50.137611,19.818424,Ujazd,Świerkowa,80,260.19
106,883,50.081104,19.764215,Aleksandrowice,,,240.7
107,320,50.151409,20.044298,Pielgrzymowice,,,275.6
108,3372,50.009496,20.120855,Węgrzce Wielkie,San Antonio,,233.62
109,409,50.006187,19.769005,Rączna,,,223.38
110,931,50.096199,19.769079,Burów,,,302.85
111,2599,50.039521,20.134673,Grabie,,,192.72
112,387,49.987999,19.779314,Jeziorzany,,,208.61
113,138,50.17255,19.91542,Owczary,,,339.45
114,139,50.17268,19.91511,Owczary,Gielniówka,,337.94
115,2066,50.100569,20.122561,Kraków-Nowa Huta,Jaskrowa,9A,218.32
116,270,50.15751,19.845108,Wielka Wieś,Szkolna,5,384.43
117,506,50.166246,19.872357,,Orlich Gniazd,,349.91
118,244,50.173598,19.914051,Owczary,,,332.63
119,492,50.172249,19.8985,,Krakowska,20,372.36
120,521,50.120655,19.78093,Zabierzów,Przy Torze,63,232.68
121,2832,50.174309,19.987906,Zerwana,,,250.14
122,5761,49.920603,19.935964,Olszowice,,,300.76
123,2545,50.116828,20.11815,Dojazdów,,,234.05
124,290,49.996944,20.129623,Ochmanów,,,230.39
125,349,50.165009,20.039921,Sieborowice,,,316.26
126,366,50.180222,19.970085,Wilczkowice,,,277.77
127,2554,49.920471,19.987114,Łyczanka,Górska,114,320.26
128,503,50.13258,19.784113,Bolechowice,Zielona,245,247.02
129,248,50.174945,19.877311,Grębynice,,,330.64
130,291,50.003254,20.140881,Zakrzów,,,219.05
131,2827,50.182739,19.977823,Wilczkowice,,,252.74
132,352,50.185143,19.947767,Kozierów,,,359.71
133,2662,49.949956,19.801415,Rzozów,,,225.09
134,615,50.15202,19.803083,Zelków,Krakowska,225,346.38
135,413,50.147556,19.793444,Bolechowice,Szkolna,37,281.29
136,2651,49.93511,20.06409,Raciborsko,,,363.69
137,988,49.914303,19.903179,Włosań,Królowej Polski,142,339.89
138,2869,50.136154,20.113141,Luborzyca,,,288.97
139,207,50.174264,19.849742,Prądnik Korzkiewski,Ojca Smolikowskiego,3,301.54
140,332,50.175018,20.039064,Zagórzyce Dworskie,,,315.7
141,274,50.167398,19.828381,Biały Kościół,Królowej Jadwigi,4,400.49
142,2436,50.179558,19.860256,Maszyce,,,374.23
143,1018,50.16917,19.82711,Biały Kościół,Krakowska,172,399.85
144,784,49.963898,20.119417,Wieliczka,,,336.64
145,489,50.103592,19.740849,Kleszczów,,,359.81
146,6116,50.113705,19.747568,,Droga Krajowa 79,28,258.19
147,2383,49.908372,19.966872,Siepraw,Jana Pawła II,118,270.42
148,2739,50.145145,20.109311,Wysiołek Luborzycki,,,255.02
149,6072,50.040984,20.166885,Niepołomice,Krakowska,14,191.46
150,350,50.183804,20.022509,Wola Więcławska,,,275.57
151,2714,50.163351,20.082435,,Szkolna,,287.89
152,429,49.985386,20.145693,Bodzanów,,,265.73
153,411,50.158688,19.794548,Zelków,Jana Pawła II,22,399.95
154,810,50.013088,20.165509,Podłęże,,,210.8
155,2655,50.135612,19.759342,Więckowice,Słoneczna,34,269.29
156,877,50.002449,20.160959,Zakrzowiec,,,209.43
157,514,50.150635,19.777849,Karniowice,,,297.88
158,318,50.194065,19.900494,Szczodrkowice,,,375.5
159,527,50.197788,19.945341,Damice,,,343.86
160,2419,49.904956,19.996223,Siepraw,Kawęciny,30,277.12
161,3071,50.169923,19.80563,,Spacerowa,4,376.59
162,677,49.954682,20.126483,Sułów,,,401.59
163,2581,49.937819,20.102379,Grajów,Grajów,4,358.92
164,412,50.14645,19.763271,,Jana Pawła II,61,276.16
165,2975,49.989169,19.727434,Wołowice,,,210.14
166,6095,50.096481,19.718288,Morawica,Brzoskwinia,186,286.85
167,319,50.196609,19.87323,Cianowice Duże,,,402.72
168,2158,50.193085,19.853016,Smardzowice,,,400.27
169,488,50.123322,19.731733,Niegoszowice,,,257.26
170,2454,49.901447,20.019805,Czechówka,,,286.57
171,2090,49.992714,20.172606,Słomiróg,,,246.7
172,282,50.035861,20.189025,Niepołomice,Skarbowa,38,190.24
173,513,50.137981,19.738478,,Krakowska,7,277.19
174,900,49.895054,19.876371,Głogoczów,,,241.5
175,716,50.060741,19.693943,Czułów,,,287.5
176,399,50.205261,20.013813,Widoma,,,326.96
177,867,50.10684,19.70766,Nielepice,Długa,,302.87
178,2410,50.150926,19.745549,Kobylany,Leśna,1,329.74
179,296,50.011323,20.194639,Staniątki,,,204.12
180,317,50.213379,19.9042,Rzeplin,,,385.16
181,260,50.184018,19.791425,Bębło,Krakowska,76,453.85
182,158,50.18413,19.791083,Bębło,Krakowska,76,452.75
183,298,49.992402,20.189256,Zagórze,Stefana Wyszyńskiego,,224.03
184,2619,49.88285,19.91753,Krzyszkowice,,,257.57
185,5707,50.110119,19.700527,Nielepice,Długa,,270.47
186,388,50.122887,19.707764,Rudawa,Polaczka,25,246.7
187,723,50.194679,19.802392,Czajowice,Dworska,7,454.74
188,430,49.946087,20.156784,Łazany,,,339.55
189,510,50.112839,19.695131,Młynka,Kalwaryjska,104,262.26
190,3113,50.169645,19.751342,Będkowice,Brzozowa,14,418.03
191,516,50.124508,19.701921,Pisary,,,251.86
192,2872,50.176347,20.130322,Goszyce,,53,252.29
193,772,50.178125,19.760381,Będkowice,Kawiory,81,424.25
194,445,50.222931,19.978359,,Droga Wojewódzka 773,77,276.68
195,2564,49.882079,20.021574,Zakliczyn,,250,288.72
196,314,50.224895,19.912394,Przybysławice,,,333.63
197,6074,50.032048,20.21888,Niepołomice,Szkolna,1,201.84
198,286,49.976503,20.196247,Suchoraba,,,274.42
